AER_Splitter/Example_AER_Splitter/Place-White_House_DC-To-Satellite-SPACEBEE-113_52024_AER.txt

                                                                                                                                                                                                                                                                                                                                                   4 Jul 2023 19:29:44
Place-White_House_DC-To-Satellite-SPACEBEE-113_52024, Satellite-SPACEBEE-137_52186, Satellite-SPACEBEE-140_52399, Satellite-SPACEBEE-147_52415, Satellite-SPACEBEE-150_52409, Satellite-SPACEBEE-157_55102, Satellite-SPACEBEE-161_55096, Satellite-SPACEBEE-162_55095, Satellite-SPACEBEE-175_56985, Satellite-SPACEBEE-55_47459:  Inview Azimuth, Elevation, & Range


White_House_DC-To-SPACEBEE-113_52024 - AER reported in the object's default AER frame
-------------------------------------------------------------------------------------
                        Time (UTCG)          Azimuth (deg)    Elevation (deg)     Range (km)
                  -----------------------    -------------    ---------------    -----------
                  4 Jul 2023 22:03:50.878          150.133              0.000    2445.296733
                  4 Jul 2023 22:04:50.000          147.217              4.113    2032.710342
                  4 Jul 2023 22:05:50.000          142.642              9.346    1624.501865
                  4 Jul 2023 22:06:50.000          134.742             16.448    1240.166060
                  4 Jul 2023 22:07:50.000          118.971             26.493     913.305223
                  4 Jul 2023 22:08:50.000           85.314             36.403     728.472403
                  4 Jul 2023 22:09:50.000           42.647             32.465     793.151747
                  4 Jul 2023 22:10:50.000           19.053             21.404    1062.511735
                  4 Jul 2023 22:11:50.000            8.028             12.925    1424.027349
                  4 Jul 2023 22:12:50.000            2.117              6.881    1822.536273
                  4 Jul 2023 22:13:50.000          358.531              2.247    2237.012094
                  4 Jul 2023 22:14:24.151          357.074              0.000    2476.408910

Min Elevation     4 Jul 2023 22:14:24.151          357.074              0.000    2476.408932
Max Elevation     4 Jul 2023 22:09:05.654           73.415             37.067     719.435368
Mean Elevation                                                         14.060               
Min Range         4 Jul 2023 22:09:05.313           73.678             37.067     719.430789
Max Range         4 Jul 2023 22:14:24.151          357.074              0.000    2476.408932
Mean Range                                                                       1566.675061

                        Time (UTCG)          Azimuth (deg)    Elevation (deg)     Range (km)
                  -----------------------    -------------    ---------------    -----------
                  4 Jul 2023 23:38:00.547          215.099              0.000    2445.923410
                  4 Jul 2023 23:39:00.000          223.053              3.016    2135.800503
                  4 Jul 2023 23:40:00.000          233.592              6.027    1871.417022
                  4 Jul 2023 23:41:00.000          247.136              8.585    1680.199442
                  4 Jul 2023 23:42:00.000          263.274              9.969    1589.521031
                  4 Jul 2023 23:43:00.000          280.107              9.598    1616.565088
                  4 Jul 2023 23:44:00.000          295.228              7.659    1755.557549
                  4 Jul 2023 23:45:00.000          307.416              4.883    1982.351520
                  4 Jul 2023 23:46:00.000          316.780              1.874    2269.757065
                  4 Jul 2023 23:46:37.711          321.497              0.000    2471.575889

Min Elevation     4 Jul 2023 23:46:37.711          321.497              0.000    2471.576012
Max Elevation     4 Jul 2023 23:42:17.765          268.302             10.051    1585.035295
Mean Elevation                                                          5.161               
Min Range         4 Jul 2023 23:42:16.413          267.919             10.051    1585.004562
Max Range         4 Jul 2023 23:46:37.711          321.497              0.000    2471.576012
Mean Range                                                                       1981.866852

                        Time (UTCG)          Azimuth (deg)    Elevation (deg)     Range (km)
                  -----------------------    -------------    ---------------    -----------
                  5 Jul 2023 09:32:26.684           77.050              0.000    2513.566041
                  5 Jul 2023 09:33:26.000           87.507              0.189    2492.480090
                  5 Jul 2023 09:34:01.403           93.731              0.000    2513.274904

Min Elevation     5 Jul 2023 09:34:01.403           93.731              0.000    2513.274959
Max Elevation     5 Jul 2023 09:33:14.062           85.393              0.202    2491.091580
Mean Elevation                                                          0.063               
Min Range         5 Jul 2023 09:33:14.221           85.422              0.202    2491.091344
Max Range         5 Jul 2023 09:32:26.684           77.050              0.000    2513.566041
Mean Range                                                                       2506.440345

                        Time (UTCG)          Azimuth (deg)    Elevation (deg)     Range (km)
                  -----------------------    -------------    ---------------    -----------
                  5 Jul 2023 11:01:25.370           16.892              0.000    2510.785432
                  5 Jul 2023 11:02:25.000           18.934              4.161    2090.735196
                  5 Jul 2023 11:03:25.000           21.949              9.457    1673.582315
                  5 Jul 2023 11:04:25.000           26.978             16.847    1270.292808
                  5 Jul 2023 11:05:25.000           37.281             28.502     902.817645
                  5 Jul 2023 11:06:25.000           66.416             46.336     639.548238
                  5 Jul 2023 11:07:25.000          130.632             47.320     630.488196
                  5 Jul 2023 11:08:25.000          161.824             29.368     883.632262
                  5 Jul 2023 11:09:25.000          172.629             17.358    1247.926399
                  5 Jul 2023 11:10:25.000          177.786              9.791    1650.354577
                  5 Jul 2023 11:11:25.000          180.811              4.404    2067.529305
                  5 Jul 2023 11:12:25.000          182.818              0.165    2490.659926
                  5 Jul 2023 11:12:27.583          182.890              0.000    2508.937793

Min Elevation     5 Jul 2023 11:01:25.370           16.892              0.000    2510.785432
Max Elevation     5 Jul 2023 11:06:56.739          100.022             51.735     594.747063
Mean Elevation                                                         16.439               
Min Range         5 Jul 2023 11:06:56.749          100.035             51.735     594.747058
Max Range         5 Jul 2023 11:01:25.370           16.892              0.000    2510.785432
Mean Range                                                                       1582.099238

                        Time (UTCG)          Azimuth (deg)    Elevation (deg)     Range (km)
                  -----------------------    -------------    ---------------    -----------
                  5 Jul 2023 12:35:20.352          343.686              0.000    2510.873505
                  5 Jul 2023 12:36:20.000          335.710              2.879    2211.551459
                  5 Jul 2023 12:37:20.000          325.312              5.628    1963.212545
                  5 Jul 2023 12:38:20.000          312.276              7.809    1791.082385
                  5 Jul 2023 12:39:20.000          297.207              8.812    1718.938822
                  5 Jul 2023 12:40:20.000          281.838              8.248    1759.305724
                  5 Jul 2023 12:41:20.000          268.098              6.349    1904.724700
                  5 Jul 2023 12:42:20.000          256.925              3.717    2133.107860
                  5 Jul 2023 12:43:20.000          248.237              0.846    2420.080086
                  5 Jul 2023 12:43:37.598          246.091              0.000    2512.374292

Min Elevation     5 Jul 2023 12:35:20.352          343.686              0.000    2510.873505
Max Elevation     5 Jul 2023 12:39:28.690          294.949              8.829    1717.765332
Mean Elevation                                                          4.429               
Min Range         5 Jul 2023 12:39:28.588          294.976              8.829    1717.765170
Max Range         5 Jul 2023 12:43:37.598          246.091              0.000    2512.374317
Mean Range                                                                       2092.525138

                        Time (UTCG)          Azimuth (deg)    Elevation (deg)     Range (km)
                  -----------------------    -------------    ---------------    -----------
                  5 Jul 2023 21:34:02.575          128.933              0.000    2448.267024
                  5 Jul 2023 21:35:02.000          122.584              3.530    2089.468790
                  5 Jul 2023 21:36:02.000          113.536              7.448    1762.538420
                  5 Jul 2023 21:37:02.000          100.553             11.467    1496.591285
                  5 Jul 2023 21:38:02.000           82.739             14.607    1330.397361
                  5 Jul 2023 21:39:02.000           61.810             15.219    1303.656742
                  5 Jul 2023 21:40:02.000           42.485             12.884    1424.446689
                  5 Jul 2023 21:41:02.000           27.825              9.071    1660.486420
                  5 Jul 2023 21:42:02.000           17.569              5.096    1969.976848
                  5 Jul 2023 21:43:02.000           10.410              1.421    2322.659885
                  5 Jul 2023 21:43:26.911            8.079              0.000    2477.181079

Min Elevation     5 Jul 2023 21:34:02.575          128.933              0.000    2448.267024
Max Elevation     5 Jul 2023 21:38:43.559           68.309             15.374    1295.602327
Mean Elevation                                                          7.340               
Min Range         5 Jul 2023 21:38:42.566           68.661             15.374    1295.581198
Max Range         5 Jul 2023 21:43:26.911            8.079              0.000    2477.181121
Mean Range                                                                       1844.151868

                        Time (UTCG)          Azimuth (deg)    Elevation (deg)     Range (km)
                  -----------------------    -------------    ---------------    -----------
                  5 Jul 2023 23:06:24.846          191.753              0.000    2443.300410
                  5 Jul 2023 23:07:24.000          196.321              3.894    2050.858148
                  5 Jul 2023 23:08:24.000          203.133              8.634    1671.781335
                  5 Jul 2023 23:09:24.000          213.923             14.468    1330.458736
                  5 Jul 2023 23:10:24.000          231.961             21.074    1065.855509
                  5 Jul 2023 23:11:24.000          259.658             25.234     946.066112
                  5 Jul 2023 23:12:24.000          288.925             22.553    1023.563054
                  5 Jul 2023 23:13:24.000          309.171             16.153    1262.032026
                  5 Jul 2023 23:14:24.000          321.311             10.113    1589.688158
                  5 Jul 2023 23:15:24.000          328.885              5.180    1961.115073
                  5 Jul 2023 23:16:24.000          333.982              1.105    2354.292200
                  5 Jul 2023 23:16:42.077          335.207              0.000    2475.227300

Min Elevation     5 Jul 2023 23:06:24.846          191.753              0.000    2443.300410
Max Elevation     5 Jul 2023 23:11:31.329          263.451             25.294     944.769075
Mean Elevation                                                         10.701               
Min Range         5 Jul 2023 23:11:30.724          263.138             25.294     944.758459
Max Range         5 Jul 2023 23:16:42.077          335.207              0.000    2475.227494
Mean Range                                                                       1681.186505

                        Time (UTCG)          Azimuth (deg)    Elevation (deg)     Range (km)
                  -----------------------    -------------    ---------------    -----------
                  6 Jul 2023 10:31:08.568           28.293              0.000    2513.098021
                  6 Jul 2023 10:32:08.000           33.726              3.651    2139.888933
                  6 Jul 2023 10:33:08.000           41.435              7.875    1787.394616
                  6 Jul 2023 10:34:08.000           52.788             12.649    1479.081421
                  6 Jul 2023 10:35:08.000           69.676             17.353    1250.143484
                  6 Jul 2023 10:36:08.000           92.415             19.898    1150.482765
                  6 Jul 2023 10:37:08.000          116.010             18.247    1213.050951
                  6 Jul 2023 10:38:08.000          134.392             13.794    1416.439324
                  6 Jul 2023 10:39:08.000          146.850              8.924    1710.573846
                  6 Jul 2023 10:40:08.000          155.214              4.548    2055.978764
                  6 Jul 2023 10:41:08.000          161.052              0.736    2429.769593
                  6 Jul 2023 10:41:20.525          162.049              0.000    2510.094155

Min Elevation     6 Jul 2023 10:31:08.568           28.293              0.000    2513.098021
Max Elevation     6 Jul 2023 10:36:15.026           95.282             19.929    1149.305571
Mean Elevation                                                          8.973               
Min Range         6 Jul 2023 10:36:15.095           95.310             19.929    1149.305460
Max Range         6 Jul 2023 10:31:08.568           28.293              0.000    2513.098021
Mean Range                                                                       1804.666323

                        Time (UTCG)          Azimuth (deg)    Elevation (deg)     Range (km)
                  -----------------------    -------------    ---------------    -----------
                  6 Jul 2023 12:04:05.782          355.880              0.000    2512.170316
                  6 Jul 2023 12:05:05.000          350.940              3.740    2130.936056
                  6 Jul 2023 12:06:05.000          343.652              8.122    1768.782093
                  6 Jul 2023 12:07:05.000          332.539             13.150    1451.269476
                  6 Jul 2023 12:08:05.000          315.440             18.188    1215.764814
                  6 Jul 2023 12:09:05.000          291.898             20.861    1116.637350
                  6 Jul 2023 12:10:05.000          267.679             18.874    1188.827675
                  6 Jul 2023 12:11:05.000          249.430             14.010    1405.800259
                  6 Jul 2023 12:12:05.000          237.463              8.909    1712.545535
                  6 Jul 2023 12:13:05.000          229.627              4.423    2068.364874
                  6 Jul 2023 12:14:05.000          224.262              0.557    2450.639546
                  6 Jul 2023 12:14:14.345          223.579              0.000    2511.688697

Min Elevation     6 Jul 2023 12:04:05.782          355.880              0.000    2512.170316
Max Elevation     6 Jul 2023 12:09:09.880          289.834             20.879    1116.047948
Mean Elevation                                                          9.236               
Min Range         6 Jul 2023 12:09:09.881          289.833             20.879    1116.047949
Max Range         6 Jul 2023 12:04:05.782          355.880              0.000    2512.170316
Mean Range                                                                       1794.452224

                        Time (UTCG)          Azimuth (deg)    Elevation (deg)     Range (km)
                  -----------------------    -------------    ---------------    -----------
                  6 Jul 2023 21:04:54.359          104.367              0.000    2454.055664
                  6 Jul 2023 21:05:54.000           95.149              2.415    2202.887656
                  6 Jul 2023 21:06:54.000           83.764              4.438    2015.550483
                  6 Jul 2023 21:07:54.000           70.553              5.649    1914.152146
                  6 Jul 2023 21:08:54.000           56.583              5.699    1913.021811
                  6 Jul 2023 21:09:54.000           43.341              4.579    2012.440875
                  6 Jul 2023 21:10:54.000           31.918              2.621    2198.487085
                  6 Jul 2023 21:11:54.000           22.629              0.231    2450.842627
                  6 Jul 2023 21:11:59.528           21.875              0.000    2476.728571

Min Elevation     6 Jul 2023 21:04:54.359          104.367              0.000    2454.055664
Max Elevation     6 Jul 2023 21:08:26.455           62.996              5.831    1900.691529
Mean Elevation                                                          2.848               
Min Range         6 Jul 2023 21:08:24.655           63.417              5.830    1900.645066
Max Range         6 Jul 2023 21:11:59.528           21.875              0.000    2476.728574
Mean Range                                                                       2182.018546

                        Time (UTCG)          Azimuth (deg)    Elevation (deg)     Range (km)
                  -----------------------    -------------    ---------------    -----------
                  6 Jul 2023 22:35:26.310          170.934              0.000    2442.822095
                  6 Jul 2023 22:36:26.000          171.821              4.297    2014.004424
                  6 Jul 2023 22:37:26.000          173.159              9.895    1586.578557
                  6 Jul 2023 22:38:26.000          175.488             18.123    1169.735398
                  6 Jul 2023 22:39:26.000          180.844             32.757     783.877797
                  6 Jul 2023 22:40:26.000          206.870             62.938     508.950920
                  6 Jul 2023 22:41:26.000          321.518             54.970     550.789112
                  6 Jul 2023 22:42:26.000          337.850             28.887     864.294729
                  6 Jul 2023 22:43:26.000          342.197             16.268    1259.998191
                  6 Jul 2023 22:44:26.000          344.281              8.823    1679.565861
                  6 Jul 2023 22:45:26.000          345.566              3.591    2107.374692
                  6 Jul 2023 22:46:17.662          346.369              0.000    2477.890025

Min Elevation     6 Jul 2023 22:35:26.310          170.934              0.000    2442.822095
Max Elevation     6 Jul 2023 22:40:49.521          258.538             72.478     478.284421
Mean Elevation                                                         20.046               
Min Range         6 Jul 2023 22:40:49.346          257.998             72.477     478.282628
Max Range         6 Jul 2023 22:46:17.662          346.369              0.000    2477.890286
Mean Range                                                                       1453.823483

                        Time (UTCG)          Azimuth (deg)    Elevation (deg)     Range (km)
                  -----------------------    -------------    ---------------    -----------
                  7 Jul 2023 00:12:14.775          249.045              0.000    2452.326622
                  7 Jul 2023 00:13:14.000          259.543              1.192    2326.358869
                  7 Jul 2023 00:14:14.000          271.022              1.734    2273.205793
                  7 Jul 2023 00:15:14.000          282.634              1.505    2300.157948
                  7 Jul 2023 00:16:14.000          293.609              0.556    2404.178167
                  7 Jul 2023 00:16:38.519          297.777              0.000    2466.717562

Min Elevation     7 Jul 2023 00:12:14.775          249.045              0.000    2452.326622
Max Elevation     7 Jul 2023 00:14:26.291          273.417              1.751    2272.178299
Mean Elevation                                                          0.831               
Min Range         7 Jul 2023 00:14:23.865          272.944              1.750    2272.112169
Max Range         7 Jul 2023 00:16:38.519          297.777              0.000    2466.717608
Mean Range                                                                       2370.490827

                        Time (UTCG)          Azimuth (deg)    Elevation (deg)     Range (km)
                  -----------------------    -------------    ---------------    -----------
                  7 Jul 2023 10:01:18.494           43.011              0.000    2515.569110
                  7 Jul 2023 10:02:18.000           51.451              2.632    2239.836304
                  7 Jul 2023 10:03:18.000           62.092              5.070    2014.501180
                  7 Jul 2023 10:04:18.000           74.963              6.911    1862.674326
                  7 Jul 2023 10:05:18.000           89.420              7.674    1803.962500
                  7 Jul 2023 10:06:18.000          104.001              7.093    1847.730071
                  7 Jul 2023 10:07:18.000          117.165              5.370    1987.223903
                  7 Jul 2023 10:08:18.000          128.124              2.977    2203.966308
                  7 Jul 2023 10:09:18.000          136.881              0.320    2477.088545
                  7 Jul 2023 10:09:25.115          137.790              0.000    2512.348073

Min Elevation     7 Jul 2023 10:09:25.115          137.790              0.000    2512.348076
Max Elevation     7 Jul 2023 10:05:22.246           90.468              7.677    1803.676263
Mean Elevation                                                          3.805               
Min Range         7 Jul 2023 10:05:22.460           90.521              7.677    1803.675626
Max Range         7 Jul 2023 10:01:18.494           43.011              0.000    2515.569110
Mean Range                                                                       2146.490032

                        Time (UTCG)          Azimuth (deg)    Elevation (deg)     Range (km)
                  -----------------------    -------------    ---------------    -----------
                  7 Jul 2023 11:33:09.575            6.341              0.000    2513.826915
                  7 Jul 2023 11:34:09.000            4.762              4.173    2092.672783
                  7 Jul 2023 11:35:09.000            2.219              9.508    1672.905830
                  7 Jul 2023 11:36:09.000          357.685             16.980    1266.916954
                  7 Jul 2023 11:37:09.000          347.910             28.860     896.709603
                  7 Jul 2023 11:38:09.000          318.812             47.322     631.864961
                  7 Jul 2023 11:39:09.000          252.810             47.930     626.388546
                  7 Jul 2023 11:40:09.000          222.434             29.377     885.086148
                  7 Jul 2023 11:41:09.000          212.316             17.281    1253.161500
                  7 Jul 2023 11:42:09.000          207.629              9.705    1658.236635
                  7 Jul 2023 11:43:09.000          204.973              4.318    2077.461963
                  7 Jul 2023 11:44:09.000          203.273              0.079    2502.275570
                  7 Jul 2023 11:44:10.238          203.245              0.000    2511.067875

Min Elevation     7 Jul 2023 11:44:10.238          203.245              0.000    2511.067919
Max Elevation     7 Jul 2023 11:38:40.020          284.924             52.826     588.187661
Mean Elevation                                                         16.579               
Min Range         7 Jul 2023 11:38:40.038          284.903             52.826     588.187646
Max Range         7 Jul 2023 11:33:09.575            6.341              0.000    2513.826915
Mean Range                                                                       1583.736560

                        Time (UTCG)          Azimuth (deg)    Elevation (deg)     Range (km)
                  -----------------------    -------------    ---------------    -----------
                  7 Jul 2023 13:08:35.713          324.096              0.000    2515.369046
                  7 Jul 2023 13:09:35.000          313.927              1.216    2384.122142
                  7 Jul 2023 13:10:35.000          302.770              1.765    2327.358573
                  7 Jul 2023 13:11:35.000          291.456              1.521    2352.722777
                  7 Jul 2023 13:12:35.000          280.763              0.536    2457.409428
                  7 Jul 2023 13:12:57.920          276.967              0.000    2516.388842

Min Elevation     7 Jul 2023 13:08:35.713          324.096              0.000    2515.369046
Max Elevation     7 Jul 2023 13:10:46.716          300.547              1.781    2325.823098
Mean Elevation                                                          0.840               
Min Range         7 Jul 2023 13:10:46.543          300.580              1.781    2325.822746
Max Range         7 Jul 2023 13:12:57.920          276.967              0.000    2516.388883
Mean Range                                                                       2425.561801

                        Time (UTCG)          Azimuth (deg)    Elevation (deg)     Range (km)
                  -----------------------    -------------    ---------------    -----------
                  7 Jul 2023 22:04:57.335          150.632              0.000    2444.346716
                  7 Jul 2023 22:05:57.000          147.770              4.168    2027.244842
                  7 Jul 2023 22:06:57.000          143.303              9.443    1618.014643
                  7 Jul 2023 22:07:57.000          135.550             16.643    1232.124724
                  7 Jul 2023 22:08:57.000          119.896             26.949     902.973041
                  7 Jul 2023 22:09:57.000           85.687             37.320     716.199192
                  7 Jul 2023 22:10:57.000           41.940             33.137     782.481710
                  7 Jul 2023 22:11:57.000           18.345             21.687    1054.933909
                  7 Jul 2023 22:12:57.000            7.507             13.065    1418.587081
                  7 Jul 2023 22:13:57.000            1.737              6.969    1818.389315
                  7 Jul 2023 22:14:57.000          358.248              2.313    2233.662648
                  7 Jul 2023 22:15:32.068          356.800              0.000    2479.836404

Min Elevation     7 Jul 2023 22:15:32.068          356.800              0.000    2479.836426
Max Elevation     7 Jul 2023 22:10:12.548           73.518             38.017     707.180159
Mean Elevation                                                         14.308               
Min Range         7 Jul 2023 22:10:12.171           73.818             38.017     707.174479
Max Range         7 Jul 2023 22:15:32.068          356.800              0.000    2479.836426
Mean Range                                                                       1560.732852

                        Time (UTCG)          Azimuth (deg)    Elevation (deg)     Range (km)
                  -----------------------    -------------    ---------------    -----------
                  7 Jul 2023 23:39:09.201          215.742              0.000    2445.277141
                  7 Jul 2023 23:40:09.000          223.827              3.008    2136.466775
                  7 Jul 2023 23:41:09.000          234.448              5.971    1876.257275
                  7 Jul 2023 23:42:09.000          248.018              8.455    1690.056281
                  7 Jul 2023 23:43:09.000          264.064              9.755    1604.543909
                  7 Jul 2023 23:44:09.000          280.694              9.333    1635.730173
                  7 Jul 2023 23:45:09.000          295.592              7.397    1777.116775
                  7 Jul 2023 23:46:09.000          307.615              4.654    2004.769802
                  7 Jul 2023 23:47:09.000          316.879              1.682    2292.096809
                  7 Jul 2023 23:47:43.206          321.156              0.000    2474.343686

Min Elevation     7 Jul 2023 23:47:43.206          321.156              0.000    2474.343787
Max Elevation     7 Jul 2023 23:43:24.715          268.466              9.817    1601.265534
Mean Elevation                                                          5.025               
Min Range         7 Jul 2023 23:43:23.146          268.026              9.817    1601.224693
Max Range         7 Jul 2023 23:47:43.206          321.156              0.000    2474.343787
Mean Range                                                                       1993.665863

                        Time (UTCG)          Azimuth (deg)    Elevation (deg)     Range (km)
                  -----------------------    -------------    ---------------    -----------
                  8 Jul 2023 09:33:13.840           74.220              0.000    2517.655492
                  8 Jul 2023 09:34:13.000           84.635              0.367    2476.765498
                  8 Jul 2023 09:35:13.000           95.247              0.091    2506.684297
                  8 Jul 2023 09:35:21.488           96.718              0.000    2516.656631

Min Elevation     8 Jul 2023 09:33:13.840           74.220              0.000    2517.655492
Max Elevation     8 Jul 2023 09:34:17.711           85.475              0.369    2476.506076
Mean Elevation                                                          0.114               
Min Range         8 Jul 2023 09:34:18.092           85.543              0.369    2476.504617
Max Range         8 Jul 2023 09:33:13.840           74.220              0.000    2517.655492
Mean Range                                                                       2504.440479

                        Time (UTCG)          Azimuth (deg)    Elevation (deg)     Range (km)
                  -----------------------    -------------    ---------------    -----------
                  8 Jul 2023 11:02:26.962           16.641              0.000    2515.749858
                  8 Jul 2023 11:03:26.000           18.574              4.117    2099.539436
                  8 Jul 2023 11:04:26.000           21.443              9.400    1681.718967
                  8 Jul 2023 11:05:26.000           26.216             16.773    1277.105034
                  8 Jul 2023 11:06:26.000           35.980             28.448     906.740439
                  8 Jul 2023 11:07:26.000           64.024             46.831     636.875876
                  8 Jul 2023 11:08:26.000          130.348             48.827     619.190308
                  8 Jul 2023 11:09:26.000          162.517             30.149     869.391686
                  8 Jul 2023 11:10:26.000          173.260             17.765    1233.465282
                  8 Jul 2023 11:11:26.000          178.317             10.046    1636.110628
                  8 Jul 2023 11:12:26.000          181.263              4.587    2053.532205
                  8 Jul 2023 11:13:26.000          183.213              0.309    2476.884893
                  8 Jul 2023 11:13:30.813          183.342              0.000    2510.959915

Min Elevation     8 Jul 2023 11:13:30.813          183.342              0.000    2510.959964
Max Elevation     8 Jul 2023 11:07:59.345          100.120             53.071     586.960497
Mean Elevation                                                         16.712               
Min Range         8 Jul 2023 11:07:59.377          100.160             53.071     586.960448
Max Range         8 Jul 2023 11:02:26.962           16.641              0.000    2515.749858
Mean Range                                                                       1578.251117

                        Time (UTCG)          Azimuth (deg)    Elevation (deg)     Range (km)
                  -----------------------    -------------    ---------------    -----------
                  8 Jul 2023 12:36:22.454          343.477              0.000    2515.859686
                  8 Jul 2023 12:37:22.000          335.492              2.851    2219.029219
                  8 Jul 2023 12:38:22.000          325.096              5.567    1972.891114
                  8 Jul 2023 12:39:22.000          312.110              7.707    1802.950001
                  8 Jul 2023 12:40:22.000          297.148              8.676    1732.494426
                  8 Jul 2023 12:41:22.000          281.914              8.104    1773.596133
                  8 Jul 2023 12:42:22.000          268.285              6.220    1918.781922
                  8 Jul 2023 12:43:22.000          257.178              3.612    2146.326544
                  8 Jul 2023 12:44:22.000          248.519              0.762    2432.229110
                  8 Jul 2023 12:44:37.937          246.572              0.000    2515.388588

Min Elevation     8 Jul 2023 12:36:22.454          343.477              0.000    2515.859686
Max Elevation     8 Jul 2023 12:40:29.983          295.092              8.690    1731.485186
Mean Elevation                                                          4.350               
Min Range         8 Jul 2023 12:40:30.000          295.087              8.690    1731.485180
Max Range         8 Jul 2023 12:36:22.454          343.477              0.000    2515.859686
Mean Range                                                                       2102.954674

                        Time (UTCG)          Azimuth (deg)    Elevation (deg)     Range (km)
                  -----------------------    -------------    ---------------    -----------
                  8 Jul 2023 21:34:58.466          129.360              0.000    2448.171539
                  8 Jul 2023 21:35:58.000          123.059              3.557    2087.309461
                  8 Jul 2023 21:36:58.000          114.073              7.512    1758.461457
                  8 Jul 2023 21:37:58.000          101.130             11.598    1489.969808
                  8 Jul 2023 21:38:58.000           83.262             14.832    1320.860067
                  8 Jul 2023 21:39:58.000           62.145             15.510    1291.754914
                  8 Jul 2023 21:40:58.000           42.606             13.162    1411.544501
                  8 Jul 2023 21:41:58.000           27.820              9.297    1647.673690
                  8 Jul 2023 21:42:58.000           17.515              5.275    1957.685733
                  8 Jul 2023 21:43:58.000           10.346              1.567    2310.951796
                  8 Jul 2023 21:44:25.327            7.807              0.000    2480.896428

Min Elevation     8 Jul 2023 21:34:58.466          129.360              0.000    2448.171539
Max Elevation     8 Jul 2023 21:39:40.512           68.372             15.654    1284.326404
Mean Elevation                                                          7.483               
Min Range         8 Jul 2023 21:39:39.409           68.767             15.653    1284.300084
Max Range         8 Jul 2023 21:44:25.327            7.807              0.000    2480.896477
Mean Range                                                                       1836.843581

                        Time (UTCG)          Azimuth (deg)    Elevation (deg)     Range (km)
                  -----------------------    -------------    ---------------    -----------
                  8 Jul 2023 23:07:22.121          192.165              0.000    2442.689389
                  8 Jul 2023 23:08:22.000          196.871              3.938    2046.684097
                  8 Jul 2023 23:09:22.000          203.811              8.669    1669.589819
                  8 Jul 2023 23:10:22.000          214.777             14.462    1331.357375
                  8 Jul 2023 23:11:22.000          232.974             20.931    1071.452548
                  8 Jul 2023 23:12:22.000          260.502             24.849     957.263548
                  8 Jul 2023 23:13:22.000          289.236             22.121    1038.290991
                  8 Jul 2023 23:14:22.000          309.159             15.854    1277.411049
                  8 Jul 2023 23:15:22.000          321.202              9.923    1604.498337
                  8 Jul 2023 23:16:22.000          328.763              5.053    1975.103297
                  8 Jul 2023 23:17:22.000          333.872              1.013    2367.477726
                  8 Jul 2023 23:17:38.663          335.010              0.000    2478.712271

Min Elevation     8 Jul 2023 23:07:22.121          192.165              0.000    2442.689389
Max Elevation     8 Jul 2023 23:12:28.023          263.572             24.888     956.468134
Mean Elevation                                                         10.568               
Min Range         8 Jul 2023 23:12:27.324          263.215             24.888     956.454170
Max Range         8 Jul 2023 23:17:38.663          335.010              0.000    2478.712464
Mean Range                                                                       1688.377537

                        Time (UTCG)          Azimuth (deg)    Elevation (deg)     Range (km)
                  -----------------------    -------------    ---------------    -----------
                  9 Jul 2023 10:31:59.928           28.035              0.000    2517.842268
                  9 Jul 2023 10:32:59.000           33.355              3.637    2145.694948
                  9 Jul 2023 10:33:59.000           40.945              7.879    1791.248370
                  9 Jul 2023 10:34:59.000           52.145             12.699    1479.891079
                  9 Jul 2023 10:35:59.000           68.905             17.514    1246.440323
                  9 Jul 2023 10:36:59.000           91.714             20.228    1141.289417
                  9 Jul 2023 10:37:59.000          115.629             18.658    1199.367826
                  9 Jul 2023 10:38:59.000          134.308             14.152    1400.465356
                  9 Jul 2023 10:39:59.000          146.923              9.201    1693.842398
                  9 Jul 2023 10:40:59.000          155.354              4.763    2039.171644
                  9 Jul 2023 10:41:59.000          161.217              0.908    2413.142333
                  9 Jul 2023 10:42:14.358          162.435              0.000    2511.780494

Min Elevation     9 Jul 2023 10:31:59.928           28.035              0.000    2517.842268
Max Elevation     9 Jul 2023 10:37:07.788           95.336             20.280    1139.405581
Mean Elevation                                                          9.137               
Min Range         9 Jul 2023 10:37:07.939           95.399             20.279    1139.405043
Max Range         9 Jul 2023 10:31:59.928           28.035              0.000    2517.842268
Mean Range                                                                       1798.348038

                        Time (UTCG)          Azimuth (deg)    Elevation (deg)     Range (km)
                  -----------------------    -------------    ---------------    -----------
                  9 Jul 2023 12:04:57.382          355.747              0.000    2517.055964
                  9 Jul 2023 12:05:57.000          350.737              3.754    2134.298043
                  9 Jul 2023 12:06:57.000          343.402              8.115    1773.587880
                  9 Jul 2023 12:07:57.000          332.254             13.097    1457.932887
                  9 Jul 2023 12:08:57.000          315.196             18.050    1224.542279
                  9 Jul 2023 12:09:57.000          291.855             20.645    1126.945752
                  9 Jul 2023 12:10:57.000          267.890             18.680    1199.093389
                  9 Jul 2023 12:11:57.000          249.759             13.888    1414.871074
                  9 Jul 2023 12:12:57.000          237.806              8.837    1720.223202
                  9 Jul 2023 12:13:57.000          229.948              4.379    2074.842478
                  9 Jul 2023 12:14:57.000          224.556              0.526    2456.152372
                  9 Jul 2023 12:15:05.847          223.905              0.000    2513.810668

Min Elevation     9 Jul 2023 12:15:05.847          223.905              0.000    2513.810893
Max Elevation     9 Jul 2023 12:10:01.577          289.940             20.660    1126.415935
Mean Elevation                                                          9.164               
Min Range         9 Jul 2023 12:10:01.651          289.909             20.660    1126.415800
Max Range         9 Jul 2023 12:04:57.382          355.747              0.000    2517.055964
Mean Range                                                                       1801.112999

Section Statistics
------------------
Min Elevation     7 Jul 2023 10:09:25.115          137.790              0.000    2512.348076
Max Elevation     6 Jul 2023 22:40:49.521          258.538             72.478     478.284421
Mean Elevation                                                          9.506               
Min Range         6 Jul 2023 22:40:49.346          257.998             72.477     478.282628
Max Range         9 Jul 2023 10:31:59.928           28.035              0.000    2517.842268
Mean Range                                                                       1834.344823


White_House_DC-To-SPACEBEE-137_52186 - AER reported in the object's default AER frame
-------------------------------------------------------------------------------------
                        Time (UTCG)          Azimuth (deg)    Elevation (deg)     Range (km)
                  -----------------------    -------------    ---------------    -----------
                  4 Jul 2023 17:16:44.711          356.651              0.000    2347.474235
                  4 Jul 2023 17:17:44.000          351.718              3.881    1953.367089
                  4 Jul 2023 17:18:44.000          344.086              8.578    1578.154970
                  4 Jul 2023 17:19:44.000          331.631             14.224    1250.684747
                  4 Jul 2023 17:20:44.000          310.957             19.922    1020.200219
                  4 Jul 2023 17:21:44.000          282.205             21.764     960.566948
                  4 Jul 2023 17:22:44.000          256.116             17.614    1100.112039
                  4 Jul 2023 17:23:44.000          239.290             11.627    1379.104200
                  4 Jul 2023 17:24:44.000          229.180              6.356    1730.386204
                  4 Jul 2023 17:25:44.000          222.791              2.009    2117.012916
                  4 Jul 2023 17:26:15.656          220.320             -0.000    2328.821763

Min Elevation     4 Jul 2023 17:26:15.656          220.320             -0.000    2328.821763
Max Elevation     4 Jul 2023 17:21:31.073          288.644             21.930     955.947412
Mean Elevation                                                          9.634               
Min Range         4 Jul 2023 17:21:31.462          288.450             21.930     955.942947
Max Range         4 Jul 2023 17:16:44.711          356.651              0.000    2347.474235
Mean Range                                                                       1615.080485

                        Time (UTCG)          Azimuth (deg)    Elevation (deg)     Range (km)
                  -----------------------    -------------    ---------------    -----------
                  5 Jul 2023 02:12:46.613           85.324              0.000    2344.792684
                  5 Jul 2023 02:13:46.000           74.327              1.267    2209.408937
                  5 Jul 2023 02:14:46.000           62.208              1.794    2156.348610
                  5 Jul 2023 02:15:46.000           50.001              1.441    2193.906328
                  5 Jul 2023 02:16:46.000           38.676              0.294    2317.646667
                  5 Jul 2023 02:16:57.556           36.655              0.000    2350.363614

Min Elevation     5 Jul 2023 02:12:46.613           85.324              0.000    2344.792684
Max Elevation     5 Jul 2023 02:14:52.071           60.960              1.799    2156.013775
Mean Elevation                                                          0.799               
Min Range         5 Jul 2023 02:14:51.202           61.139              1.799    2156.004161
Max Range         5 Jul 2023 02:16:57.556           36.655              0.000    2350.363629
Mean Range                                                                       2262.077807

                        Time (UTCG)          Azimuth (deg)    Elevation (deg)     Range (km)
                  -----------------------    -------------    ---------------    -----------
                  5 Jul 2023 03:40:57.009          161.190              0.000    2334.909795
                  5 Jul 2023 03:41:57.000          160.131              4.367    1901.039895
                  5 Jul 2023 03:42:57.000          158.359             10.139    1471.399114
                  5 Jul 2023 03:43:57.000          154.884             18.934    1054.579331
                  5 Jul 2023 03:44:57.000          145.523             35.495     678.437811
                  5 Jul 2023 03:45:57.000           91.354             63.896     460.966305
                  5 Jul 2023 03:46:57.000           11.938             41.397     608.207283
                  5 Jul 2023 03:47:57.000          359.246             21.815     965.286535
                  5 Jul 2023 03:48:57.000          355.102             11.893    1376.723157
                  5 Jul 2023 03:49:57.000          353.133              5.648    1804.457724
                  5 Jul 2023 03:50:57.000          352.032              1.045    2237.720403
                  5 Jul 2023 03:51:12.711          351.825              0.000    2351.495579

Min Elevation     5 Jul 2023 03:51:12.711          351.825              0.000    2351.495751
Max Elevation     5 Jul 2023 03:46:03.775           76.375             64.683     458.223761
Mean Elevation                                                         17.886               
Min Range         5 Jul 2023 03:46:03.692           76.563             64.682     458.223336
Max Range         5 Jul 2023 03:51:12.711          351.825              0.000    2351.495751
Mean Range                                                                       1437.101911

                        Time (UTCG)          Azimuth (deg)    Elevation (deg)     Range (km)
                  -----------------------    -------------    ---------------    -----------
                  5 Jul 2023 05:15:18.477          233.020              0.000    2338.275044
                  5 Jul 2023 05:16:18.000          243.250              2.092    2118.901968
                  5 Jul 2023 05:17:18.000          255.521              3.661    1969.799484
                  5 Jul 2023 05:18:18.000          269.168              4.337    1910.472569
                  5 Jul 2023 05:19:18.000          282.965              3.924    1949.186578
                  5 Jul 2023 05:20:18.000          295.608              2.552    2080.099543
                  5 Jul 2023 05:21:18.000          306.363              0.563    2286.711658
                  5 Jul 2023 05:21:33.244          308.775              0.000    2348.917539

Min Elevation     5 Jul 2023 05:21:33.244          308.775              0.000    2348.917561
Max Elevation     5 Jul 2023 05:18:25.369          270.883              4.345    1909.927441
Mean Elevation                                                          2.141               
Min Range         5 Jul 2023 05:18:24.365          270.650              4.345    1909.913494
Max Range         5 Jul 2023 05:21:33.244          308.775              0.000    2348.917561
Mean Range                                                                       2125.295548

                        Time (UTCG)          Azimuth (deg)    Elevation (deg)     Range (km)
                  -----------------------    -------------    ---------------    -----------
                  5 Jul 2023 15:01:10.191           69.791              0.000    2339.960944
                  5 Jul 2023 15:02:10.000           81.148              0.701    2261.190639
                  5 Jul 2023 15:03:10.000           92.932              0.668    2262.697565
                  5 Jul 2023 15:04:04.399          103.272              0.000    2333.992553

Min Elevation     5 Jul 2023 15:01:10.191           69.791              0.000    2339.960944
Max Elevation     5 Jul 2023 15:02:37.412           86.532              0.781    2251.658882
Mean Elevation                                                          0.342               
Min Range         5 Jul 2023 15:02:38.905           86.826              0.781    2251.633245
Max Range         5 Jul 2023 15:01:10.191           69.791              0.000    2339.960944
Mean Range                                                                       2299.460425

                        Time (UTCG)          Azimuth (deg)    Elevation (deg)     Range (km)
                  -----------------------    -------------    ---------------    -----------
                  5 Jul 2023 16:30:01.947           13.934              0.000    2346.194332
                  5 Jul 2023 16:31:01.000           15.066              4.244    1919.410293
                  5 Jul 2023 16:32:01.000           16.778              9.908    1489.327041
                  5 Jul 2023 16:33:01.000           19.831             18.497    1070.443118
                  5 Jul 2023 16:34:01.000           27.482             34.728     687.510119
                  5 Jul 2023 16:35:01.000           75.195             66.508     449.396000
                  5 Jul 2023 16:36:01.000          168.635             43.831     578.975513
                  5 Jul 2023 16:37:01.000          180.749             22.551     933.827321
                  5 Jul 2023 16:38:01.000          184.662             12.179    1345.393705
                  5 Jul 2023 16:39:01.000          186.634              5.774    1773.447658
                  5 Jul 2023 16:40:01.000          187.851              1.100    2207.032251
                  5 Jul 2023 16:40:17.364          188.110              0.000    2325.623488

Min Elevation     5 Jul 2023 16:30:01.947           13.934              0.000    2346.194332
Max Elevation     5 Jul 2023 16:35:11.119          101.123             68.666     442.829069
Mean Elevation                                                         18.277               
Min Range         5 Jul 2023 16:35:11.217          101.392             68.666     442.828463
Max Range         5 Jul 2023 16:30:01.947           13.934              0.000    2346.194332
Mean Range                                                                       1427.215070

                        Time (UTCG)          Azimuth (deg)    Elevation (deg)     Range (km)
                  -----------------------    -------------    ---------------    -----------
                  5 Jul 2023 18:03:21.922          335.392              0.000    2345.534957
                  5 Jul 2023 18:04:21.000          325.621              2.269    2104.857830
                  5 Jul 2023 18:05:21.000          313.467              4.071    1932.656407
                  5 Jul 2023 18:06:21.000          299.569              4.944    1854.272769
                  5 Jul 2023 18:07:21.000          285.271              4.606    1881.716700
                  5 Jul 2023 18:08:21.000          272.147              3.170    2010.410017
                  5 Jul 2023 18:09:21.000          261.122              1.037    2222.175600
                  5 Jul 2023 18:09:46.959          257.049              0.000    2333.936294

Min Elevation     5 Jul 2023 18:03:21.922          335.392              0.000    2345.534957
Max Elevation     5 Jul 2023 18:06:34.614          296.300              4.977    1851.099497
Mean Elevation                                                          2.512               
Min Range         5 Jul 2023 18:06:35.590          296.065              4.977    1851.085224
Max Range         5 Jul 2023 18:03:21.922          335.392              0.000    2345.534957
Mean Range                                                                       2085.695072

                        Time (UTCG)          Azimuth (deg)    Elevation (deg)     Range (km)
                  -----------------------    -------------    ---------------    -----------
                  6 Jul 2023 02:55:23.159          128.170              0.000    2336.588132
                  6 Jul 2023 02:56:23.000          121.188              3.532    1978.146077
                  6 Jul 2023 02:57:23.000          111.169              7.388    1659.410370
                  6 Jul 2023 02:58:23.000           96.740             11.181    1411.348031
                  6 Jul 2023 02:59:23.000           77.393             13.697    1277.434019
                  6 Jul 2023 03:00:23.000           56.013             13.383    1294.416607
                  6 Jul 2023 03:01:23.000           37.632             10.481    1457.073761
                  6 Jul 2023 03:02:23.000           24.280              6.627    1724.145010
                  6 Jul 2023 03:03:23.000           15.064              2.836    2054.411970
                  6 Jul 2023 03:04:11.689            9.677              0.000    2349.938558

Min Elevation     6 Jul 2023 03:04:11.689            9.677              0.000    2349.938771
Max Elevation     6 Jul 2023 02:59:46.991           68.792             13.956    1265.230403
Mean Elevation                                                          6.913               
Min Range         6 Jul 2023 02:59:46.518           68.963             13.956    1265.225431
Max Range         6 Jul 2023 03:04:11.689            9.677              0.000    2349.938771
Mean Range                                                                       1754.291253

                        Time (UTCG)          Azimuth (deg)    Elevation (deg)     Range (km)
                  -----------------------    -------------    ---------------    -----------
                  6 Jul 2023 04:26:42.953          192.711              0.000    2332.884901
                  6 Jul 2023 04:27:42.000          197.686              3.902    1940.700449
                  6 Jul 2023 04:28:42.000          205.274              8.690    1563.875139
                  6 Jul 2023 04:29:42.000          217.588             14.572    1231.407118
                  6 Jul 2023 04:30:42.000          238.341             20.825     991.068233
                  6 Jul 2023 04:31:42.000          268.274             23.301     919.416927
                  6 Jul 2023 04:32:42.000          296.004             19.086    1051.616130
                  6 Jul 2023 04:33:42.000          313.736             12.751    1327.499474
                  6 Jul 2023 04:34:42.000          324.298              7.243    1676.566375
                  6 Jul 2023 04:35:42.000          330.994              2.765    2060.677737
                  6 Jul 2023 04:36:25.311          334.455              0.000    2349.274734

Min Elevation     6 Jul 2023 04:26:42.953          192.711              0.000    2332.884901
Max Elevation     6 Jul 2023 04:31:32.968          263.526             23.391     916.790855
Mean Elevation                                                         10.285               
Min Range         6 Jul 2023 04:31:32.651          263.359             23.391     916.787821
Max Range         6 Jul 2023 04:36:25.311          334.455              0.000    2349.274734
Mean Range                                                                       1585.907929

                        Time (UTCG)          Azimuth (deg)    Elevation (deg)     Range (km)
                  -----------------------    -------------    ---------------    -----------
                  6 Jul 2023 15:43:59.369           33.346              0.000    2343.938768
                  6 Jul 2023 15:44:59.000           40.484              3.423    1992.000872
                  6 Jul 2023 15:45:59.000           50.546              7.159    1676.557578
                  6 Jul 2023 15:46:59.000           64.808             10.848    1427.934148
                  6 Jul 2023 15:47:59.000           83.848             13.385    1287.151053
                  6 Jul 2023 15:48:59.000          105.182             13.276    1290.952230
                  6 Jul 2023 15:49:59.000          123.996             10.583    1438.398352
                  6 Jul 2023 15:50:59.000          137.990              6.829    1691.982109
                  6 Jul 2023 15:51:59.000          147.828              3.071    2011.194047
                  6 Jul 2023 15:52:52.082          154.124              0.000    2326.050867

Min Elevation     6 Jul 2023 15:43:59.369           33.346              0.000    2343.938768
Max Elevation     6 Jul 2023 15:48:26.852           93.761             13.717    1269.832450
Mean Elevation                                                          6.857               
Min Range         6 Jul 2023 15:48:27.514           93.999             13.716    1269.823240
Max Range         6 Jul 2023 15:43:59.369           33.346              0.000    2343.938768
Mean Range                                                                       1748.616002

                        Time (UTCG)          Azimuth (deg)    Elevation (deg)     Range (km)
                  -----------------------    -------------    ---------------    -----------
                  6 Jul 2023 17:15:37.899          357.171              0.000    2345.476897
                  6 Jul 2023 17:16:37.000          352.418              3.897    1950.000352
                  6 Jul 2023 17:17:37.000          345.008              8.660    1570.827797
                  6 Jul 2023 17:18:37.000          332.789             14.472    1237.415650
                  6 Jul 2023 17:19:37.000          312.081             20.533     998.946844
                  6 Jul 2023 17:20:37.000          282.500             22.684     932.723035
                  6 Jul 2023 17:21:37.000          255.506             18.346    1071.389842
                  6 Jul 2023 17:22:37.000          238.392             12.077    1352.814348
                  6 Jul 2023 17:23:37.000          228.282              6.642    1706.815085
                  6 Jul 2023 17:24:37.000          221.961              2.209    2095.670275
                  6 Jul 2023 17:25:11.450          219.339              0.000    2327.405354

Min Elevation     6 Jul 2023 17:15:37.899          357.171              0.000    2345.476897
Max Elevation     6 Jul 2023 17:20:25.549          288.411             22.826     928.998330
